code,city,country,lat,lon
ZNZ,Zanzibar,TANZANIA,-6.13,39.31
TYO,Tokyo,JAPAN,35.68,139.76
AKL,Auckland,NEW ZEALAND,-36.85,174.78
BKK,Bangkok,THAILAND,13.75,100.48
DEL,Delhi,INDIA,29.01,77.38
SIN,Singapore,SINGAPOR,1.36,103.75
BSB,Brasilia,BRAZIL,-15.67,-47.43
RIO,Rio De Janeiro,BRAZIL,-22.90,-43.24
YTO,Toronto,CANADA,43.64,-79.40
IPC,Easter Island,CHILE,-27.11,-109.36
SEA,Seattle,USA,47.61,-122.33
ATL,Atlanta,USA,33.74,-84.38
CMH,Columbus,USA,39.961176,-82.998794